[
  {
    "id": 10,
    "name": "강현림동물병원",
    "address": "서울특별시 양천구 등촌로 160 (목동) 1층",
    "tel": "02-2642-9159",
    "latitude": 37.5439,
    "longitude": 126.862,
    "division": "ANIMAL_HOSPITAL",
    "veterinarianCount": 1,
    "caretakerCount": 1,
    "weekdayOpenTime": "10:00",
    "weekdayCloseTime": "18:00",
    "weekendOpenTime": "10:00",
    "weekendCloseTime": "16:00"
  },
  {
    "id": 11,
    "name": "한샘동물병원",
    "address": "서울특별시 구로구 경인로40길 25 (개봉동, 청실아파트) 상가동 2층",
    "tel": "02-2681-7585",
    "latitude": 37.4954,
    "longitude": 126.86,
    "division": "ANIMAL_HOSPITAL",
    "veterinarianCount": 1,
    "caretakerCount": 1,
    "weekdayOpenTime": "00:00",
    "weekdayCloseTime": "00:00",
    "weekendOpenTime": null,
    "weekendCloseTime": null
  },
  {
    "id": 12,
    "name": "마포구청",
    "address": "서울특별시 마포구 월드컵로 212 (성산동, 마포구청) 8층 경제진흥과",
    "tel": "02-3153-8542",
    "latitude": 37.5663,
    "longitude": 126.901,
    "division": "CORPORATION",
    "veterinarianCount": 0,
    "caretakerCount": 1,
    "weekdayOpenTime": "00:00",
    "weekdayCloseTime": null,
    "weekendOpenTime": null,
    "weekendCloseTime": null
  },
  {
    "id": 13,
    "name": "홍익동물병원",
    "address": "서울특별시 마포구 독막로 45 (합정동) ",
    "tel": "02-325-2026",
    "latitude": 37.5481,
    "longitude": 126.918,
    "division": "ANIMAL_HOSPITAL",
    "veterinarianCount": 1,
    "caretakerCount": 1,
    "weekdayOpenTime": "09:30",
    "weekdayCloseTime": "19:00",
    "weekendOpenTime": "09:30",
    "weekendCloseTime": "18:00"
  },
  {
    "id": 14,
    "name": "내품애센터",
    "address": "서울특별시 서대문구 모래내로 333 (홍은동) ",
    "tel": "02-330-3821",
    "latitude": 37.5804,
    "longitude": 126.934,
    "division": "CORPORATION",
    "veterinarianCount": 0,
    "caretakerCount": 6,
    "weekdayOpenTime": "10:00",
    "weekdayCloseTime": "17:00",
    "weekendOpenTime": null,
    "weekendCloseTime": null
  },
  {
    "id": 15,
    "name": "웰케어 동물병원",
    "address": "서울특별시 마포구 월드컵북로 27 (서교동, 이화빌딩) 서교동447-2",
    "tel": "02-337-7575",
    "latitude": 37.5569,
    "longitude": 126.919,
    "division": "ANIMAL_HOSPITAL",
    "veterinarianCount": 2,
    "caretakerCount": 3,
    "weekdayOpenTime": "09:00",
    "weekdayCloseTime": "22:00",
    "weekendOpenTime": "09:00",
    "weekendCloseTime": "22:00"
  },
  {
    "id": 17,
    "name": "GD동물병원",
    "address": "서울특별시 강동구 상일로 13 (상일동) 1~2층 GD동물병원",
    "tel": "02-429-8822",
    "latitude": 37.5482,
    "longitude": 127.173,
    "division": "ANIMAL_HOSPITAL",
    "veterinarianCount": 1,
    "caretakerCount": 1,
    "weekdayOpenTime": "10:00",
    "weekdayCloseTime": "19:00",
    "weekendOpenTime": "10:00",
    "weekendCloseTime": "17:00"
  },
  {
    "id": 18,
    "name": "둔촌동물병원",
    "address": "서울특별시 강동구 양재대로 1385 (성내동) 둔촌동물병원",
    "tel": "02-474-5100",
    "latitude": 37.5299,
    "longitude": 127.137,
    "division": "ANIMAL_HOSPITAL",
    "veterinarianCount": 2,
    "caretakerCount": 2,
    "weekdayOpenTime": "09:00",
    "weekdayCloseTime": "19:00",
    "weekendOpenTime": "10:00",
    "weekendCloseTime": "18:00"
  },
  {
    "id": 19,
    "name": "C.T종합동물병원",
    "address": "서울특별시 마포구 만리재로 74 (신공덕동, 신공덕2차삼성래미안) 삼성 래미안상가 117호",
    "tel": "02-6375-0075",
    "latitude": 37.5465,
    "longitude": 126.958,
    "division": "ANIMAL_HOSPITAL",
    "veterinarianCount": 1,
    "caretakerCount": 1,
    "weekdayOpenTime": "09:30",
    "weekdayCloseTime": "19:30",
    "weekendOpenTime": "09:30",
    "weekendCloseTime": "16:00"
  },
  {
    "id": 20,
    "name": "박창석동물병원",
    "address": "서울특별시 마포구 도화길 42 (도화동) ",
    "tel": "02-6405-7582",
    "latitude": 37.5415,
    "longitude": 126.95,
    "division": "ANIMAL_HOSPITAL",
    "veterinarianCount": 1,
    "caretakerCount": 0,
    "weekdayOpenTime": "09:00",
    "weekdayCloseTime": "19:00",
    "weekendOpenTime": "09:00",
    "weekendCloseTime": "16:00"
  },
  {
    "id": 21,
    "name": "서초동물사랑센터",
    "address": "서울특별시 서초구 양재천로19길 22 (양재동, 숨빌딩) 서초동물사랑센터",
    "tel": "02-6956-7980",
    "latitude": 37.4764,
    "longitude": 127.038,
    "division": "CORPORATION",
    "veterinarianCount": 0,
    "caretakerCount": 3,
    "weekdayOpenTime": "10:00",
    "weekdayCloseTime": "17:00",
    "weekendOpenTime": null,
    "weekendCloseTime": null
  },
  {
    "id": 22,
    "name": "노원반려동물문화센터",
    "address": "서울특별시 노원구 수락산로 258 (상계동, 호성빌딩) 1층",
    "tel": "02-933-8500",
    "latitude": 37.6714,
    "longitude": 127.05,
    "division": "CORPORATION",
    "veterinarianCount": 0,
    "caretakerCount": 2,
    "weekdayOpenTime": "10:00",
    "weekdayCloseTime": "19:00",
    "weekendOpenTime": null,
    "weekendCloseTime": null
  },
  {
    "id": 23,
    "name": "수원시 동물보호센터",
    "address": "경기도 수원시 영통구 광교호수로 234 (하동, 수원시 동물보호센터) 하동 40-10",
    "tel": "031-228-3557",
    "latitude": 37.285,
    "longitude": 127.079,
    "division": "CORPORATION",
    "veterinarianCount": 1,
    "caretakerCount": 6,
    "weekdayOpenTime": "09:00",
    "weekdayCloseTime": "18:00",
    "weekendOpenTime": null,
    "weekendCloseTime": null
  },
  {
    "id": 24,
    "name": "한국야생동물보호협회",
    "address": "경기도 안산시 상록구 청곡길 50 (부곡동) (사)한국야생동물보호협회",
    "tel": "031-296-0124",
    "latitude": 37.3402,
    "longitude": 126.87,
    "division": "CORPORATION",
    "veterinarianCount": 1,
    "caretakerCount": 4,
    "weekdayOpenTime": "09:00",
    "weekdayCloseTime": "18:00",
    "weekendOpenTime": "09:00",
    "weekendCloseTime": "17:00"
  },
  {
    "id": 25,
    "name": "시흥동물누리보호센터",
    "address": "경기도 시흥시 뒷방울길 218 (정왕동) ",
    "tel": "031-310-6945",
    "latitude": 37.374,
    "longitude": 126.743,
    "division": "CORPORATION",
    "veterinarianCount": 1,
    "caretakerCount": 4,
    "weekdayOpenTime": "09:00",
    "weekdayCloseTime": "18:00",
    "weekendOpenTime": null,
    "weekendCloseTime": null
  },
  {
    "id": 26,
    "name": "용인시 동물보호센터",
    "address": "경기도 용인시 처인구 중부대로 1074-1 (삼가동) 용인시 동물보호센터",
    "tel": "031-324-3463",
    "latitude": 37.2433,
    "longitude": 127.159,
    "division": "CORPORATION",
    "veterinarianCount": 1,
    "caretakerCount": 7,
    "weekdayOpenTime": "09:00",
    "weekdayCloseTime": "18:00",
    "weekendOpenTime": null,
    "weekendCloseTime": null
  },
  {
    "id": 27,
    "name": "남양동물보호센터",
    "address": "경기도 화성시 남양읍 화성로 1483-27 (남양읍) ",
    "tel": "031-356-2281",
    "latitude": 37.2249,
    "longitude": 126.843,
    "division": "INDIVIDUAL",
    "veterinarianCount": 1,
    "caretakerCount": 2,
    "weekdayOpenTime": "09:00",
    "weekdayCloseTime": "18:00",
    "weekendOpenTime": "09:00",
    "weekendCloseTime": "18:00"
  },
  {
    "id": 28,
    "name": "구리반려동물문화센터",
    "address": "경기도 구리시 동구릉로136번길 57 (인창동) 2층",
    "tel": "031-566-0059",
    "latitude": 37.6135,
    "longitude": 127.141,
    "division": "CORPORATION",
    "veterinarianCount": 0,
    "caretakerCount": 0,
    "weekdayOpenTime": "10:00",
    "weekdayCloseTime": "19:00",
    "weekendOpenTime": null,
    "weekendCloseTime": null
  },
  {
    "id": 30,
    "name": "남양주시동물보호센터",
    "address": "경기도 남양주시 경강로163번길 32-27 (이패동) ",
    "tel": "031-590-2785",
    "latitude": 37.6088,
    "longitude": 127.192,
    "division": "ANIMAL_HOSPITAL",
    "veterinarianCount": 1,
    "caretakerCount": 3,
    "weekdayOpenTime": "09:00",
    "weekdayCloseTime": "18:00",
    "weekendOpenTime": null,
    "weekendCloseTime": null
  },
  {
    "id": 32,
    "name": "펫앤쉘터동물병원",
    "address": "경기도 성남시 분당구 불정로 266 (수내동, 유신제일조합) ",
    "tel": "031-714-8392",
    "latitude": 37.3671,
    "longitude": 127.128,
    "division": "ANIMAL_HOSPITAL",
    "veterinarianCount": 1,
    "caretakerCount": 6,
    "weekdayOpenTime": "10:00",
    "weekdayCloseTime": "18:00",
    "weekendOpenTime": null,
    "weekendCloseTime": null
  },
  {
    "id": 33,
    "name": "양평군유기동물보호소",
    "address": "경기도 양평군 양평읍 농업기술센터길 59-1  ",
    "tel": "031-770-2337",
    "latitude": 37.5109,
    "longitude": 127.513,
    "division": "CORPORATION",
    "veterinarianCount": 1,
    "caretakerCount": 6,
    "weekdayOpenTime": "09:00",
    "weekdayCloseTime": "18:00",
    "weekendOpenTime": "09:00",
    "weekendCloseTime": "18:00"
  },
  {
    "id": 34,
    "name": "하남동물보호센터",
    "address": "경기도 하남시 미사동로40번길 75-91 (미사동) ",
    "tel": "031-790-5853",
    "latitude": 37.5688,
    "longitude": 127.208,
    "division": "CORPORATION",
    "veterinarianCount": 4,
    "caretakerCount": 2,
    "weekdayOpenTime": "09:00",
    "weekdayCloseTime": "18:00",
    "weekendOpenTime": null,
    "weekendCloseTime": null
  },
  {
    "id": 35,
    "name": "광주TNR동물병원초월",
    "address": "경기도 광주시 초월읍 현산로385번길 74-12 (초월읍) ",
    "tel": "031-798-7581",
    "latitude": 37.4159,
    "longitude": 127.276,
    "division": "ANIMAL_HOSPITAL",
    "veterinarianCount": 1,
    "caretakerCount": 3,
    "weekdayOpenTime": "10:00",
    "weekdayCloseTime": "19:00",
    "weekendOpenTime": null,
    "weekendCloseTime": null
  },
  {
    "id": 36,
    "name": "광주TNR동물병원송정",
    "address": "경기도 광주시 경안천로 142 (송정동) 광주TNR동물병원",
    "tel": "031-798-7583",
    "latitude": 37.4173,
    "longitude": 127.275,
    "division": "ANIMAL_HOSPITAL",
    "veterinarianCount": 1,
    "caretakerCount": 3,
    "weekdayOpenTime": "10:00",
    "weekdayCloseTime": "19:00",
    "weekendOpenTime": "10:00",
    "weekendCloseTime": "14:00"
  },
  {
    "id": 37,
    "name": "평택시유기동물보호소",
    "address": "경기도 평택시 진위면 야막길 108-86 (진위면) ",
    "tel": "031-8024-3849",
    "latitude": 37.1306,
    "longitude": 127.055,
    "division": "CORPORATION",
    "veterinarianCount": 1,
    "caretakerCount": 3,
    "weekdayOpenTime": "09:00",
    "weekdayCloseTime": "18:00",
    "weekendOpenTime": "00:00",
    "weekendCloseTime": "00:00"
  },
  {
    "id": 38,
    "name": "한국동물구조관리협회",
    "address": "경기도 양주시 남면 감악산로 63-37  ",
    "tel": "031-867-9119",
    "latitude": 37.8701,
    "longitude": 126.984,
    "division": "CORPORATION",
    "veterinarianCount": 1,
    "caretakerCount": 6,
    "weekdayOpenTime": "00:00",
    "weekdayCloseTime": null,
    "weekendOpenTime": null,
    "weekendCloseTime": null
  },
  {
    "id": 39,
    "name": "한국동물구조관리협회",
    "address": "경기도 양주시 남면 감악산로 63-37 (남면) ",
    "tel": "031-868-2851",
    "latitude": 37.8701,
    "longitude": 126.984,
    "division": "CORPORATION",
    "veterinarianCount": 1,
    "caretakerCount": 8,
    "weekdayOpenTime": "09:00",
    "weekdayCloseTime": "18:00",
    "weekendOpenTime": "09:00",
    "weekendCloseTime": "16:00"
  },
  {
    "id": 41,
    "name": "고양시동물보호센터",
    "address": "경기도 고양시 덕양구 고양대로 1695 (원흥동, 고양시 농업기술센터) 고양시동물보호센터",
    "tel": "031-962-3232",
    "latitude": 37.6496,
    "longitude": 126.87,
    "division": "CORPORATION",
    "veterinarianCount": 2,
    "caretakerCount": 6,
    "weekdayOpenTime": "09:00",
    "weekdayCloseTime": "22:00",
    "weekendOpenTime": "09:00",
    "weekendCloseTime": "18:00"
  },
  {
    "id": 42,
    "name": "정샘동물병원",
    "address": "경기도 부천시 원미구 중동로 244 (중동, 상록센트럴타워) 109,110호",
    "tel": "032-323-4999",
    "latitude": 37.5015,
    "longitude": 126.769,
    "division": "ANIMAL_HOSPITAL",
    "veterinarianCount": 1,
    "caretakerCount": 1,
    "weekdayOpenTime": "10:00",
    "weekdayCloseTime": "20:00",
    "weekendOpenTime": null,
    "weekendCloseTime": null
  },
  {
    "id": 43,
    "name": "삼산종합동물병원",
    "address": "인천광역시 부평구 체육관로 40 (삼산동) ",
    "tel": "032-330-0075",
    "latitude": 37.5082,
    "longitude": 126.736,
    "division": "ANIMAL_HOSPITAL",
    "veterinarianCount": 1,
    "caretakerCount": 1,
    "weekdayOpenTime": "10:00",
    "weekdayCloseTime": "19:00",
    "weekendOpenTime": null,
    "weekendCloseTime": null
  },
  {
    "id": 44,
    "name": "늘푸른동물병원",
    "address": "인천광역시 부평구 후정동로 60 (삼산동) ",
    "tel": "032-507-0075",
    "latitude": 37.5227,
    "longitude": 126.738,
    "division": "ANIMAL_HOSPITAL",
    "veterinarianCount": 1,
    "caretakerCount": 1,
    "weekdayOpenTime": "10:30",
    "weekdayCloseTime": "19:00",
    "weekendOpenTime": null,
    "weekendCloseTime": null
  },
  {
    "id": 45,
    "name": "짱구네동물병원",
    "address": "인천광역시 부평구 평천로 356 (갈산동) ",
    "tel": "032-511-5515",
    "latitude": 37.5176,
    "longitude": 126.73,
    "division": "ANIMAL_HOSPITAL",
    "veterinarianCount": 2,
    "caretakerCount": 2,
    "weekdayOpenTime": "10:30",
    "weekdayCloseTime": "19:00",
    "weekendOpenTime": null,
    "weekendCloseTime": null
  },
  {
    "id": 46,
    "name": "인천광역시수의사회",
    "address": "인천광역시 계양구 다남로165번길 56 (다남동, 유기동물보호소) ",
    "tel": "032-515-7567",
    "latitude": 37.5663,
    "longitude": 126.72,
    "division": "ORGANIZATION",
    "veterinarianCount": 1,
    "caretakerCount": 3,
    "weekdayOpenTime": "09:00",
    "weekdayCloseTime": "17:30",
    "weekendOpenTime": "09:00",
    "weekendCloseTime": "12:00"
  },
  {
    "id": 47,
    "name": "조재진동물병원",
    "address": "인천광역시 부평구 원적로 419 (산곡동) ",
    "tel": "032-518-3800",
    "latitude": 37.504,
    "longitude": 126.712,
    "division": "ANIMAL_HOSPITAL",
    "veterinarianCount": 1,
    "caretakerCount": 2,
    "weekdayOpenTime": "10:30",
    "weekdayCloseTime": "19:00",
    "weekendOpenTime": null,
    "weekendCloseTime": null
  },
  {
    "id": 49,
    "name": "가정동물병원",
    "address": "인천광역시 서구 가정로 346 (가정동) ",
    "tel": "032-575-0833",
    "latitude": 37.5157,
    "longitude": 126.673,
    "division": "ANIMAL_HOSPITAL",
    "veterinarianCount": 2,
    "caretakerCount": 4,
    "weekdayOpenTime": "10:00",
    "weekdayCloseTime": "20:00",
    "weekendOpenTime": null,
    "weekendCloseTime": null
  },
  {
    "id": 50,
    "name": "부천시수의사회",
    "address": "경기도 부천시 원미구 중동로 100 (중동) 아이파크 상가동 213호",
    "tel": "032-661-7575",
    "latitude": 37.4887,
    "longitude": 126.766,
    "division": "ORGANIZATION",
    "veterinarianCount": 1,
    "caretakerCount": 1,
    "weekdayOpenTime": "10:00",
    "weekdayCloseTime": "18:00",
    "weekendOpenTime": null,
    "weekendCloseTime": null
  },
  {
    "id": 51,
    "name": "가나동물병원",
    "address": "경기도 부천시 소사구 경인로 72 (송내동) ",
    "tel": "032-665-0075",
    "latitude": 37.4836,
    "longitude": 126.763,
    "division": "ANIMAL_HOSPITAL",
    "veterinarianCount": 1,
    "caretakerCount": 1,
    "weekdayOpenTime": "10:00",
    "weekdayCloseTime": "19:00",
    "weekendOpenTime": null,
    "weekendCloseTime": null
  },
  {
    "id": 52,
    "name": "24시아이동물메디컬",
    "address": "경기도 부천시 오정구 소사로 779 (원종동) 201호",
    "tel": "032-677-5262",
    "latitude": 37.5257,
    "longitude": 126.805,
    "division": "ANIMAL_HOSPITAL",
    "veterinarianCount": 7,
    "caretakerCount": 5,
    "weekdayOpenTime": "00:00",
    "weekdayCloseTime": null,
    "weekendOpenTime": null,
    "weekendCloseTime": null
  },
  {
    "id": 53,
    "name": "신공항동물병원",
    "address": "인천광역시 중구 운남동로3번길 9 (운남동) ",
    "tel": "032-751-4598",
    "latitude": 37.4887,
    "longitude": 126.533,
    "division": "ANIMAL_HOSPITAL",
    "veterinarianCount": 2,
    "caretakerCount": 1,
    "weekdayOpenTime": "09:00",
    "weekdayCloseTime": "18:00",
    "weekendOpenTime": "09:00",
    "weekendCloseTime": "18:00"
  },
  {
    "id": 54,
    "name": "경동동물병원",
    "address": "인천광역시 중구 개항로 68 (경동) 경동동물병원",
    "tel": "032-765-9988",
    "latitude": 37.472,
    "longitude": 126.63,
    "division": "ANIMAL_HOSPITAL",
    "veterinarianCount": 1,
    "caretakerCount": 0,
    "weekdayOpenTime": "09:00",
    "weekdayCloseTime": "18:00",
    "weekendOpenTime": null,
    "weekendCloseTime": null
  },
  {
    "id": 55,
    "name": "베스트동물병원",
    "address": "인천광역시 강화군 강화읍 강화대로 217 (강화읍, 린나이보일러) ",
    "tel": "032-934-9340",
    "latitude": 37.7397,
    "longitude": 126.505,
    "division": "ANIMAL_HOSPITAL",
    "veterinarianCount": 1,
    "caretakerCount": 1,
    "weekdayOpenTime": "10:00",
    "weekdayCloseTime": "20:00",
    "weekendOpenTime": null,
    "weekendCloseTime": null
  },
  {
    "id": 178,
    "name": "강동리본센터(reborn)",
    "address": "서울특별시 강동구 양재대로81길 73 (성내동) ",
    "tel": "070-4163-7350",
    "latitude": 37.5239,
    "longitude": 127.13,
    "division": "CORPORATION",
    "veterinarianCount": 0,
    "caretakerCount": 5,
    "weekdayOpenTime": "10:00",
    "weekdayCloseTime": "19:00",
    "weekendOpenTime": "10:00",
    "weekendCloseTime": "19:00"
  },
  {
    "id": 181,
    "name": "디디동물병원",
    "address": "인천광역시 강화군 강화읍 강화대로 254-1  ",
    "tel": "010-2679-3786",
    "latitude": 37.7412,
    "longitude": 126.501,
    "division": "ANIMAL_HOSPITAL",
    "veterinarianCount": 2,
    "caretakerCount": 3,
    "weekdayOpenTime": "10:00",
    "weekdayCloseTime": "19:00",
    "weekendOpenTime": null,
    "weekendCloseTime": null
  },
  {
    "id": 183,
    "name": "서울동물복지지원센터",
    "address": "서울특별시 마포구 매봉산로 31 (상암동) 지하1층",
    "tel": "02-2124-2839",
    "latitude": 37.576,
    "longitude": 126.89,
    "division": "CORPORATION",
    "veterinarianCount": 3,
    "caretakerCount": 7,
    "weekdayOpenTime": "09:00",
    "weekdayCloseTime": "18:00",
    "weekendOpenTime": null,
    "weekendCloseTime": null
  },
  {
    "id": 184,
    "name": "동대문구청",
    "address": "서울특별시 동대문구 천호대로 145 (용두동) ",
    "tel": "02-2127-4268",
    "latitude": 37.5789,
    "longitude": 127.07,
    "division": "CORPORATION",
    "veterinarianCount": 1,
    "caretakerCount": 1,
    "weekdayOpenTime": "09:00",
    "weekdayCloseTime": "18:00",
    "weekendOpenTime": null,
    "weekendCloseTime": null
  },
  {
    "id": 185,
    "name": "하니동물병원",
    "address": "서울특별시 양천구 등촌로 58 (목동) 하니동물병원",
    "tel": "02-2647-1772",
    "latitude": 37.5351,
    "longitude": 126.864,
    "division": "ANIMAL_HOSPITAL",
    "veterinarianCount": 1,
    "caretakerCount": 3,
    "weekdayOpenTime": "09:00",
    "weekdayCloseTime": "18:00",
    "weekendOpenTime": null,
    "weekendCloseTime": null
  },
  {
    "id": 186,
    "name": "광명반함센터",
    "address": "경기도 광명시 오리로854번길 10 (철산동) 지하1층",
    "tel": "02-2680-5001",
    "latitude": 37.4744,
    "longitude": 126.868,
    "division": "CORPORATION",
    "veterinarianCount": 0,
    "caretakerCount": 1,
    "weekdayOpenTime": "10:00",
    "weekdayCloseTime": "19:00",
    "weekendOpenTime": null,
    "weekendCloseTime": null
  },
  {
    "id": 187,
    "name": "열린동물병원",
    "address": "서울특별시 용산구 원효로2가 84-10",
    "tel": "02-3273-0075",
    "latitude": 37.535,
    "longitude": 126.963,
    "division": "ANIMAL_HOSPITAL",
    "veterinarianCount": 1,
    "caretakerCount": 1,
    "weekdayOpenTime": "10:00",
    "weekdayCloseTime": "19:00",
    "weekendOpenTime": null,
    "weekendCloseTime": null
  },
  {
    "id": 188,
    "name": "남산동물병원",
    "address": "서울특별시 용산구 후암로 51 (후암동) 1층",
    "tel": "02-778-7582",
    "latitude": 37.5504,
    "longitude": 126.977,
    "division": "ANIMAL_HOSPITAL",
    "veterinarianCount": 1,
    "caretakerCount": 0,
    "weekdayOpenTime": "10:00",
    "weekdayCloseTime": "19:00",
    "weekendOpenTime": null,
    "weekendCloseTime": null
  },
  {
    "id": 189,
    "name": "이상윤동물병원",
    "address": "서울특별시 용산구 이촌동 300-23",
    "tel": "02-792-5455",
    "latitude": 37.5168,
    "longitude": 126.976,
    "division": "ANIMAL_HOSPITAL",
    "veterinarianCount": 1,
    "caretakerCount": 1,
    "weekdayOpenTime": "10:00",
    "weekdayCloseTime": "19:00",
    "weekendOpenTime": null,
    "weekendCloseTime": null
  },
  {
    "id": 190,
    "name": "펫토이동물병원",
    "address": "서울특별시 용산구 한남동 653-26",
    "tel": "02-795-2184",
    "latitude": 37.534,
    "longitude": 127.003,
    "division": "ANIMAL_HOSPITAL",
    "veterinarianCount": 1,
    "caretakerCount": 1,
    "weekdayOpenTime": "11:00",
    "weekdayCloseTime": "19:00",
    "weekendOpenTime": null,
    "weekendCloseTime": null
  },
  {
    "id": 191,
    "name": "디아크 동물종합병원",
    "address": "서울특별시 동작구 장승배기로27길 18 (노량진동) 1층",
    "tel": "02-816-7582",
    "latitude": 37.5117,
    "longitude": 126.939,
    "division": "ANIMAL_HOSPITAL",
    "veterinarianCount": 1,
    "caretakerCount": 1,
    "weekdayOpenTime": "09:00",
    "weekdayCloseTime": "18:00",
    "weekendOpenTime": null,
    "weekendCloseTime": null
  },
  {
    "id": 192,
    "name": "의왕시청",
    "address": "경기도 의왕시 백운로 23 (오전동) 도시농업과",
    "tel": "031-345-2383",
    "latitude": 37.3521,
    "longitude": 126.982,
    "division": "CORPORATION",
    "veterinarianCount": 0,
    "caretakerCount": 0,
    "weekdayOpenTime": "09:00",
    "weekdayCloseTime": "18:00",
    "weekendOpenTime": null,
    "weekendCloseTime": null
  },
  {
    "id": 193,
    "name": "오산 유기동물보호소",
    "address": "경기도 오산시 성호대로 36 (오산동) ",
    "tel": "031-372-9325",
    "latitude": 37.1491,
    "longitude": 127.065,
    "division": "ANIMAL_HOSPITAL",
    "veterinarianCount": 1,
    "caretakerCount": 1,
    "weekdayOpenTime": "10:00",
    "weekdayCloseTime": "19:00",
    "weekendOpenTime": null,
    "weekendCloseTime": null
  },
  {
    "id": 194,
    "name": "용인시 동물보호센터",
    "address": "경기도 용인시 처인구 중부대로 1074-1 (삼가동) 용인시 동물보호센터",
    "tel": "031-6193-3463",
    "latitude": 37.2433,
    "longitude": 127.159,
    "division": "CORPORATION",
    "veterinarianCount": 1,
    "caretakerCount": 7,
    "weekdayOpenTime": "09:00",
    "weekdayCloseTime": "18:00",
    "weekendOpenTime": null,
    "weekendCloseTime": null
  },
  {
    "id": 196,
    "name": "에이스동물메디컬센터",
    "address": "경기도 의정부시 태평로 102-1 (의정부동) ",
    "tel": "031-875-8090",
    "latitude": 37.7416,
    "longitude": 127.052,
    "division": "ANIMAL_HOSPITAL",
    "veterinarianCount": 1,
    "caretakerCount": 4,
    "weekdayOpenTime": "10:00",
    "weekdayCloseTime": "18:00",
    "weekendOpenTime": null,
    "weekendCloseTime": null
  },
  {
    "id": 197,
    "name": "신영재동물병원",
    "address": "인천광역시 계양구 장제로 923 (병방동) ",
    "tel": "032-552-0075",
    "latitude": 37.5488,
    "longitude": 126.741,
    "division": "ANIMAL_HOSPITAL",
    "veterinarianCount": 1,
    "caretakerCount": 2,
    "weekdayOpenTime": "09:00",
    "weekdayCloseTime": "18:00",
    "weekendOpenTime": "09:00",
    "weekendCloseTime": "18:00"
  }
]
