[
  {
    "id": 38,
    "name": "한국동물구조관리협회",
    "address": "경기도 양주시 남면 감악산로 63-37  ",
    "tel": "031-867-9119",
    "latitude": 37.8701,
    "longitude": 126.984,
    "division": "CORPORATION",
    "veterinarianCount": 1,
    "caretakerCount": 6,
    "weekdayOpenTime": "00:00",
    "weekdayCloseTime": null,
    "weekendOpenTime": null,
    "weekendCloseTime": null
  },
  {
    "id": 40,
    "name": "위더스 동물보호센터",
    "address": "경기도 여주시 여양2로 42 (천송동) ",
    "tel": "031-882-4381",
    "latitude": 37.3079,
    "longitude": 127.674,
    "division": "ANIMAL_HOSPITAL",
    "veterinarianCount": 1,
    "caretakerCount": 2,
    "weekdayOpenTime": "09:00",
    "weekdayCloseTime": "18:00",
    "weekendOpenTime": "09:00",
    "weekendCloseTime": "18:00"
  },
  {
    "id": 60,
    "name": "인제군유기동물보호소",
    "address": "강원도 인제군 인제읍 비봉로44번길 105  ",
    "tel": "033-460-2473",
    "latitude": 38.0588,
    "longitude": 128.166,
    "division": "CORPORATION",
    "veterinarianCount": 0,
    "caretakerCount": 2,
    "weekdayOpenTime": "09:00",
    "weekdayCloseTime": "18:00",
    "weekendOpenTime": null,
    "weekendCloseTime": null
  },
  {
    "id": 85,
    "name": "충주시동물보호센터",
    "address": "충청북도 충주시 중앙탑면 일곱실길 70 (중앙탑면) ",
    "tel": "043-851-3168",
    "latitude": 37.0084,
    "longitude": 127.85,
    "division": "CORPORATION",
    "veterinarianCount": 2,
    "caretakerCount": 4,
    "weekdayOpenTime": "09:00",
    "weekdayCloseTime": "17:00",
    "weekendOpenTime": "09:00",
    "weekendCloseTime": "17:00"
  },
  {
    "id": 205,
    "name": "금왕동물병원",
    "address": "충청북도 음성군 금왕읍 대금로 1498 (금왕읍) 금왕동물병원",
    "tel": "043-877-0763",
    "latitude": 36.9892,
    "longitude": 127.598,
    "division": "ANIMAL_HOSPITAL",
    "veterinarianCount": 1,
    "caretakerCount": 1,
    "weekdayOpenTime": "09:00",
    "weekdayCloseTime": "18:00",
    "weekendOpenTime": null,
    "weekendCloseTime": null
  },
  {
    "id": 82,
    "name": "반려동물보호센터",
    "address": "충청북도 청주시 흥덕구 강내면 서부로 411-55 (강내면) ",
    "tel": "043-201-2298",
    "latitude": 36.5902,
    "longitude": 127.365,
    "division": "CORPORATION",
    "veterinarianCount": 2,
    "caretakerCount": 8,
    "weekdayOpenTime": "09:00",
    "weekdayCloseTime": "18:00",
    "weekendOpenTime": "09:00",
    "weekendCloseTime": "18:00"
  }
]
